{"type":"FeatureCollection","features":[{"type": "Feature", "geometry": {"type": "Point", "coordinates": [-123.18474450987034, 49.26108572763105]}, "properties": {"maintainer": "Parks", "name": "Fountain location:\nAlmond Park", "mapid": "DFPB0004", "location": "S-side of playground", "in_operation": "spring to fall", "geo_local_area": "Kitsilano"}},{"type": "Feature", "geometry": {"type": "Point", "coordinates": [-123.157976371445, 49.248784480708856]}, "properties": {"maintainer": "Parks", "name": "Fountain location:\nArbutus Village Park", "mapid": "DFPB0008", "location": "S-side of playground", "in_operation": "spring to fall", "geo_local_area": "Arbutus-Ridge"}},{"type": "Feature", "geometry": {"type": "Point", "coordinates": [-123.05005566614936, 49.25529665790978]}, "properties": {"photo_name": "Beaconsfield Park - drinking fountain - 2005.JPG", "name": "Fountain location:\nBeaconsfield Park", "mapid": "DFPB0011", "location": "adjacent to field house", "maintainer": "Parks", "geo_local_area": "Renfrew-Collingwood", "in_operation": "spring to fall"}},{"type": "Feature", "geometry": {"type": "Point", "coordinates": [-123.17249944309232, 49.25703164790549]}, "properties": {"maintainer": "Parks", "name": "Fountain location:\nCarnarvon Park", "mapid": "DFPB0014", "location": "S-side of wading pool", "in_operation": "spring to fall", "geo_local_area": "Arbutus-Ridge"}},{"type": "Feature", "geometry": {"type": "Point", "coordinates": [-123.05012162418116, 49.27080498248805]}, "properties": {"photo_name": "Clinton Park - drinking fountain - 2005.JPG", "name": "Fountain location:\nClinton Park - East side of wading pool", "mapid": "DFPB0021", "location": "E-side of wading pool", "maintainer": "Parks", "geo_local_area": "Hastings-Sunrise", "in_operation": "spring to fall"}},{"type": "Feature", "geometry": {"type": "Point", "coordinates": [-123.12537005471899, 49.28997735565045]}, "properties": {"maintainer": "Parks", "name": "Fountain location:\nCoal Harbour Park", "mapid": "DFPB0023", "location": "near playground", "in_operation": "spring to fall", "geo_local_area": "Downtown"}},{"type": "Feature", "geometry": {"type": "Point", "coordinates": [-123.12327408831909, 49.27249998987751]}, "properties": {"maintainer": "Parks", "name": "Fountain location:\nDavid Lam Park - South west of playgrounds", "mapid": "DFPB0033", "location": "E area, near playground", "in_operation": "spring to fall", "geo_local_area": "Downtown"}},{"type": "Feature", "geometry": {"type": "Point", "coordinates": [-123.12248713679699, 49.252041562131495]}, "properties": {"photo_name": "Douglas Park - drinking fountain 2 - 2005.JPG", "name": "Fountain location:\nDouglas Park (community centre)", "mapid": "DFPB0036", "location": "exterior of building", "maintainer": "Parks", "geo_local_area": "South Cambie", "in_operation": "spring to fall"}},{"type": "Feature", "geometry": {"type": "Point", "coordinates": [-123.16338644585873, 49.2335891619661]}, "properties": {"maintainer": "Parks", "name": "Fountain location:\nElm Park", "mapid": "DFPB0038", "location": "N-side of field house", "in_operation": "spring to fall", "geo_local_area": "Kerrisdale"}},{"type": "Feature", "geometry": {"type": "Point", "coordinates": [-123.12378107952713, 49.277097085980934]}, "properties": {"mapid": "DFPB0039", "maintainer": "Parks", "name": "Fountain location:\nEmery Barnes Park - Dog off-leash area", "geo_local_area": "Downtown"}},{"type": "Feature", "geometry": {"type": "Point", "coordinates": [-123.14932242480502, 49.20723462029865]}, "properties": {"photo_name": "Fraser River Park - drinking fountain - 2007.JPG", "name": "Fountain location:\nFraser River Park - park entrance by Angus Dr", "mapid": "DFPB0046", "location": "near park entrance by Angus Dr", "maintainer": "Parks", "geo_local_area": "Kerrisdale", "in_operation": "spring to fall"}},{"type": "Feature", "geometry": {"type": "Point", "coordinates": [-123.09358705827185, 49.212521750458855]}, "properties": {"photo_name": "George Park - drinking fountain - 2005.JPG", "name": "Fountain location:\nGeorge Park", "mapid": "DFPB0053", "location": "southeast corner of park", "maintainer": "Parks", "geo_local_area": "Sunset", "in_operation": "spring to fall"}},{"type": "Feature", "geometry": {"type": "Point", "coordinates": [-123.07079528098261, 49.27367804148393]}, "properties": {"maintainer": "Parks", "name": "Fountain location:\nGrandview Park - West of Stage", "mapid": "DFPB0055", "location": "Close to the Stage", "in_operation": "spring to fall", "geo_local_area": "Grandview-Woodland"}},{"type": "Feature", "geometry": {"type": "Point", "coordinates": [-123.08497892775704, 49.24108234786047]}, "properties": {"maintainer": "Parks", "name": "Fountain location:\nGrays Park", "mapid": "DFPB0058", "location": "front of wading pool", "in_operation": "spring to fall", "geo_local_area": "Kensington-Cedar Cottage"}},{"type": "Feature", "geometry": {"type": "Point", "coordinates": [-123.03820552198269, 49.280485189595346]}, "properties": {"photo_name": "Hastings Community Park - drinking fountain - 2005.JPG", "name": "Fountain location:\nHastings Community Park - South of wading pool", "mapid": "DFPB0063", "location": "besides wading pool", "maintainer": "Parks", "geo_local_area": "Hastings-Sunrise", "in_operation": "spring to fall"}},{"type": "Feature", "geometry": {"type": "Point", "coordinates": [-123.10695405521624, 49.24576803722393]}, "properties": {"mapid": "DFPB0072", "maintainer": "Parks", "name": "Fountain location:\nHillcrest Park - East side", "geo_local_area": "Riley Park"}},{"type": "Feature", "geometry": {"type": "Point", "coordinates": [-123.04513661129735, 49.26405984253122]}, "properties": {"maintainer": "Parks", "name": "Fountain location:\nKaslo Park", "mapid": "DFPB0076", "location": "SE corner of tennis courts", "in_operation": "spring to fall", "geo_local_area": "Hastings-Sunrise"}},{"type": "Feature", "geometry": {"type": "Point", "coordinates": [-123.15718540627705, 49.23343616142541]}, "properties": {"maintainer": "Parks", "name": "Fountain location:\nKerrisdale Centennial Park", "mapid": "DFPB0078", "location": "2nd N-side entrance", "in_operation": "spring to fall", "geo_local_area": "Kerrisdale"}},{"type": "Feature", "geometry": {"type": "Point", "coordinates": [-123.15172825900372, 49.276845069596696]}, "properties": {"maintainer": "Parks", "name": "Fountain location:\nKitsilano Beach Park - North of parking lot", "mapid": "DFPB0084", "location": "besides parking lot", "in_operation": "spring to fall", "geo_local_area": "Kitsilano"}},{"type": "Feature", "geometry": {"type": "Point", "coordinates": [-123.15380496982891, 49.27448261571296]}, "properties": {"maintainer": "Parks", "name": "Fountain location:\nKitsilano Beach Park - washroom wall", "mapid": "DFPB0082", "location": "opposite washrooms", "in_operation": "spring to fall", "geo_local_area": "Kitsilano"}},{"type": "Feature", "geometry": {"type": "Point", "coordinates": [-123.11632117402527, 49.22318016335154]}, "properties": {"maintainer": "Parks", "name": "Fountain location:\nLangara Golf Course - cambie pathway", "mapid": "DFPB0086", "location": "cambie pathway", "in_operation": "spring to fall", "geo_local_area": "Oakridge"}},{"type": "Feature", "geometry": {"type": "Point", "coordinates": [-123.11170640059784, 49.21827204955769]}, "properties": {"maintainer": "Parks", "name": "Fountain location:\nLangara Golf Course - servive yard", "mapid": "DFPB0085", "location": "servive yard", "in_operation": "spring to fall", "geo_local_area": "Marpole"}},{"type": "Feature", "geometry": {"type": "Point", "coordinates": [-123.08942685427833, 49.27894833743796]}, "properties": {"mapid": "DFPB0091", "maintainer": "Parks", "name": "Fountain location:\nMaclean Park", "geo_local_area": "Strathcona"}},{"type": "Feature", "geometry": {"type": "Point", "coordinates": [-123.10699401283071, 49.26168106933267]}, "properties": {"mapid": "DFPB0092", "maintainer": "Parks", "name": "Fountain location:\nMajor Matthews Park", "geo_local_area": "Mount Pleasant"}},{"type": "Feature", "geometry": {"type": "Point", "coordinates": [-123.15968744948694, 49.22328494934488]}, "properties": {"maintainer": "Parks", "name": "Fountain location:\nMaple Grove Park - East of pool", "mapid": "DFPB0094", "location": "E-side of pool", "in_operation": "spring to fall", "geo_local_area": "Kerrisdale"}},{"type": "Feature", "geometry": {"type": "Point", "coordinates": [-123.17088052677056, 49.22048268726047]}, "properties": {"maintainer": "Parks", "name": "Fountain location:\nMcCleery Golf Course - 5th tee", "mapid": "DFPB0097", "location": "5th tee", "in_operation": "spring to fall", "geo_local_area": "Kerrisdale"}},{"type": "Feature", "geometry": {"type": "Point", "coordinates": [-123.02909158487584, 49.2365292742264]}, "properties": {"photo_name": "Melbourne Park - drinking fountain - 2005.JPG", "name": "Fountain location:\nMelbourne Park", "mapid": "DFPB0101", "location": "front of tennis courts", "maintainer": "Parks", "geo_local_area": "Renfrew-Collingwood", "in_operation": "spring to fall"}},{"type": "Feature", "geometry": {"type": "Point", "coordinates": [-123.08475728792786, 49.231628076232425]}, "properties": {"mapid": "DFPB0102", "maintainer": "Parks", "name": "Fountain location:\nMemorial South Park - West of Softball Diamond", "geo_local_area": "Sunset"}},{"type": "Feature", "geometry": {"type": "Point", "coordinates": [-123.18728157172303, 49.24346335953531]}, "properties": {"maintainer": "Parks", "name": "Fountain location:\nMemorial West Park", "mapid": "DFPB0104", "location": "S of tennis courts", "in_operation": "spring to fall", "geo_local_area": "Dunbar-Southlands"}},{"type": "Feature", "geometry": {"type": "Point", "coordinates": [-123.10643102129615, 49.25697067120588]}, "properties": {"maintainer": "Parks", "name": "Fountain location:\nMount Pleasant Park", "mapid": "DFPB0109", "location": "S-side of wading pool", "in_operation": "spring to fall", "geo_local_area": "Mount Pleasant"}},{"type": "Feature", "geometry": {"type": "Point", "coordinates": [-123.03867549952085, 49.28953737894174]}, "properties": {"photo_name": "New Brighton - drinking fountain 1 - 2007.JPG", "name": "Fountain location:\nNew Brighton Park - South west of playground", "mapid": "DFPB0114", "location": "SW of playground", "maintainer": "Parks", "geo_local_area": "Hastings-Sunrise", "in_operation": "spring to fall"}},{"type": "Feature", "geometry": {"type": "Point", "coordinates": [-123.03551547838973, 49.289696384000045]}, "properties": {"maintainer": "Parks", "name": "Fountain location:\nNew Brighton Park - West of tennis courts", "mapid": "DFPB0112", "location": "W-side of tennis courts", "in_operation": "spring to fall", "geo_local_area": "Hastings-Sunrise"}},{"type": "Feature", "geometry": {"type": "Point", "coordinates": [-123.10941362001645, 49.27234240595487]}, "properties": {"mapid": "DFPB0190", "geo_local_area": "Mount Pleasant", "maintainer": "Parks", "name": "Fountain location:\nPark Site On South East False Creek", "location": "NE side of the park"}},{"type": "Feature", "geometry": {"type": "Point", "coordinates": [-123.11152710106677, 49.23927230037656]}, "properties": {"maintainer": "Parks", "name": "Fountain location:\nQueen Elizabeth Park - Pitch and Putt Course", "mapid": "DFPB0123", "location": "Pitch and Putt Course", "in_operation": "year-round", "geo_local_area": "Riley Park"}},{"type": "Feature", "geometry": {"type": "Point", "coordinates": [-123.1488133244043, 49.24472539986782]}, "properties": {"maintainer": "Parks", "name": "Fountain location:\nQuilchena Park", "mapid": "DFPB0126", "location": "W-side of fieldhouse", "in_operation": "spring to fall", "geo_local_area": "Arbutus-Ridge"}},{"type": "Feature", "geometry": {"type": "Point", "coordinates": [-123.04207062382282, 49.25221559661864]}, "properties": {"photo_name": "Renfrew Park - drinking fountain - 2007.JPG", "name": "Fountain location:\nRenfrew Community Park", "mapid": "DFPB0127", "location": "adjacent to wading pool", "maintainer": "Parks", "geo_local_area": "Renfrew-Collingwood", "in_operation": "spring to fall"}},{"type": "Feature", "geometry": {"type": "Point", "coordinates": [-123.05180181298957, 49.20585962877704]}, "properties": {"maintainer": "Parks", "name": "Fountain location:\nRiverfront Park - East of washrooms", "mapid": "DFPB0128", "location": "E-side of washrooms", "in_operation": "spring to fall", "geo_local_area": "Killarney"}},{"type": "Feature", "geometry": {"type": "Point", "coordinates": [-123.08241897664004, 49.21691584630587]}, "properties": {"maintainer": "Parks", "name": "Fountain location:\nRoss Park", "mapid": "DFPB0133", "location": "in front of wading pool", "in_operation": "spring to fall", "geo_local_area": "Sunset"}},{"type": "Feature", "geometry": {"type": "Point", "coordinates": [-123.03306351417534, 49.27122599793046]}, "properties": {"maintainer": "Parks", "name": "Fountain location:\nRupert Park", "mapid": "DFPB0135", "location": "E-side of playground", "in_operation": "spring to fall", "geo_local_area": "Hastings-Sunrise"}},{"type": "Feature", "geometry": {"type": "Point", "coordinates": [-123.10573882205857, 49.27218289136859]}, "properties": {"mapid": "DFPB0189", "geo_local_area": "Mount Pleasant", "maintainer": "Parks", "name": "Fountain location:\nSeawall - Creekside", "location": "Seawall - in front of Creekside Community Recreation Centre"}},{"type": "Feature", "geometry": {"type": "Point", "coordinates": [-123.14147665855549, 49.21970273952661]}, "properties": {"mapid": "DFPB0191", "maintainer": "Parks", "name": "Fountain location:\nShannon Mews Park", "geo_local_area": "Kerrisdale"}},{"type": "Feature", "geometry": {"type": "Point", "coordinates": [-123.0497356630516, 49.25835999543246]}, "properties": {"maintainer": "Parks", "name": "Fountain location:\nSlocan Greenway", "mapid": "DFPB0138", "location": "12th and slocan", "in_operation": "spring to fall", "geo_local_area": "Renfrew-Collingwood"}},{"type": "Feature", "geometry": {"type": "Point", "coordinates": [-123.04835768589251, 49.24439943119382]}, "properties": {"maintainer": "Parks", "name": "Fountain location:\nSlocan Park", "mapid": "DFPB0139", "location": "near playground", "in_operation": "spring to fall", "geo_local_area": "Renfrew-Collingwood"}},{"type": "Feature", "geometry": {"type": "Point", "coordinates": [-123.2223817077116, 49.27759005971061]}, "properties": {"maintainer": "Parks", "name": "Fountain location:\nSpanish Banks Beach Park", "mapid": "DFPB0140", "location": "on north wall of washrooms", "in_operation": "spring to fall", "geo_local_area": "West Point Grey"}},{"type": "Feature", "geometry": {"type": "Point", "coordinates": [-123.148332, 49.310653]}, "properties": {"mapid": "DFPB0162", "in_operation": "year-round", "maintainer": "Parks", "name": "Fountain location:\nStanley Park - Admin building", "location": "Park Board Office"}},{"type": "Feature", "geometry": {"type": "Point", "coordinates": [-123.1306800546251, 49.30310662903523]}, "properties": {"mapid": "DFPB0142", "in_operation": "year-round", "maintainer": "Parks", "name": "Fountain location:\nStanley Park - Lumbermen's Arch", "location": "Lumbermen's Arch"}},{"type": "Feature", "geometry": {"type": "Point", "coordinates": [-123.13414455639086, 49.29913054667917]}, "properties": {"maintainer": "Parks", "mapid": "DFPB0186", "name": "Fountain location:\nStanley Park - North east of Rose and Perennial Ga"}},{"type": "Feature", "geometry": {"type": "Point", "coordinates": [-123.14647218147267, 49.293113413609824]}, "properties": {"maintainer": "Parks", "mapid": "DFPB0149", "location": "Pitch and Putt Course", "name": "Fountain location:\nStanley Park - Putting Green"}},{"type": "Feature", "geometry": {"type": "Point", "coordinates": [-123.15001256396323, 49.294985445746754]}, "properties": {"mapid": "DFPB0151", "in_operation": "year-round", "maintainer": "Parks", "name": "Fountain location:\nStanley Park - Second Beach", "location": "Second Beach"}},{"type": "Feature", "geometry": {"type": "Point", "coordinates": [-123.15104120435711, 49.295573663121964]}, "properties": {"mapid": "DFPB0152", "in_operation": "spring to fall", "maintainer": "Parks", "name": "Fountain location:\nStanley Park - Second Beach Pool", "location": "Second Beach pool deck"}},{"type": "Feature", "geometry": {"type": "Point", "coordinates": [-123.148332, 49.310653]}, "properties": {"maintainer": "Parks", "mapid": "DFPB0144", "location": "Rose Garden playground", "name": "Fountain location:\nStanley Park - South west of playground"}},{"type": "Feature", "geometry": {"type": "Point", "coordinates": [-123.1206750891925, 49.29905793154208]}, "properties": {"maintainer": "Parks", "mapid": "DFPB0150", "location": "Totem poles", "name": "Fountain location:\nStanley Park - West of Shore to Shore sculpture"}},{"type": "Feature", "geometry": {"type": "Point", "coordinates": [-123.03565354298085, 49.26699890812438]}, "properties": {"maintainer": "Parks", "name": "Fountain location:\nSunrise Park", "mapid": "DFPB0165", "location": "N-side of wading pool", "in_operation": "spring to fall", "geo_local_area": "Hastings-Sunrise"}},{"type": "Feature", "geometry": {"type": "Point", "coordinates": [-123.1380051652894, 49.27900212016302]}, "properties": {"photo_name": "English Bay Park - drinking fountain - 2005.jpg", "name": "Fountain location:\nSunset Beach", "mapid": "DFPB0066", "location": "on building wall", "maintainer": "Parks", "geo_local_area": "West End", "in_operation": "spring to fall"}},{"type": "Feature", "geometry": {"type": "Point", "coordinates": [-123.1294242143457, 49.23950659846841]}, "properties": {"maintainer": "Parks", "name": "Fountain location:\nVandusen Botanical Garden", "mapid": "DFPB0175", "location": "near reflecting pond", "in_operation": "spring to fall", "geo_local_area": "Shaughnessy"}},{"type": "Feature", "geometry": {"type": "Point", "coordinates": [-123.13603714371125, 49.28209318599128]}, "properties": {"maintainer": "Parks", "name": "Fountain location:\nWest End minipark - JERVIS ST @ BURNABY ST", "mapid": "DFPB0181", "location": "north end", "in_operation": "spring to fall", "geo_local_area": "West End"}},{"type": "Feature", "geometry": {"type": "Point", "coordinates": [-123.20514683290192, 49.266959448015996]}, "properties": {"maintainer": "Parks", "name": "Fountain location:\nWest Point Grey Park - lawn bowling court", "mapid": "DFPB0182", "location": "In lawn bowling court", "in_operation": "spring to fall", "geo_local_area": "West Point Grey"}},{"type": "Feature", "geometry": {"type": "Point", "coordinates": [-123.1130441730933, 49.21594381468852]}, "properties": {"maintainer": "Parks", "name": "Fountain location:\nWinona Park", "mapid": "DFPB0184", "location": "near playground", "in_operation": "spring to fall", "geo_local_area": "Marpole"}},{"type": "Feature", "geometry": {"type": "Point", "coordinates": [-123.125914, 49.2663411]}, "properties": {"maintainer": "Engineering", "name": "Bottle Filling Station location: \nCharleson Park Pumping Station", "mapid": "DFENG0500", "location": "North side of sewage pumping station 900 Charleson", "photo_name": "CharlesonParkPumpingStation.jpg", "pet_friendly": "N", "geo_local_area": "Fairview", "in_operation": "Year Round"}},{"type": "Feature", "geometry": {"type": "Point", "coordinates": [-123.041381, 49.257924]}, "properties": {"photo_name": "GrandviewHwyPumpingStation.jpg", "name": "Bottle Filling Station location: \nGrandview Hwy Pumping Station", "mapid": "DFENG0501", "maintainer": "Engineering", "pet_friendly": "N", "geo_local_area": "Renfrew-Collingwood", "in_operation": "Year Round"}},{"type": "Feature", "geometry": {"type": "Point", "coordinates": [-123.142081, 49.265329]}, "properties": {"maintainer": "Engineering", "name": "Fountain location:\n1650 W 7th", "mapid": "DFENG0011", "location": "Midblock, outside of 1650 W 7th", "photo_name": "1650 w 7th 2.JPG", "pet_friendly": "Y", "geo_local_area": "Fairview", "in_operation": "May-October"}},{"type": "Feature", "geometry": {"type": "Point", "coordinates": [-123.105647, 49.237446]}, "properties": {"maintainer": "Engineering", "name": "Fountain location:\n37th & Ontario", "mapid": "DFENG0013", "location": "Northwest corner of 37th & Ontario", "photo_name": "Ontario&37th.jpg", "pet_friendly": "N", "geo_local_area": "Riley Park", "in_operation": "May-October"}},{"type": "Feature", "geometry": {"type": "Point", "coordinates": [-123.152706, 49.26822777]}, "properties": {"maintainer": "Engineering", "name": "Fountain location:\n4th & Arbutus", "mapid": "DFENG0003", "location": "Northeast corner of 4th & Arbutus", "photo_name": "P3140883.JPG", "pet_friendly": "N", "geo_local_area": "Kitsilano", "in_operation": "May-October"}},{"type": "Feature", "geometry": {"type": "Point", "coordinates": [-123.065619, 49.262066]}, "properties": {"maintainer": "Engineering", "name": "Fountain location:\nBroadway & Victoria", "mapid": "DFENG0016", "location": "Southeast corner of Broadway & Victoria", "photo_name": "Broadway Victoria 2.JPG", "pet_friendly": "N", "geo_local_area": "Kensington-Cedar Cottage", "in_operation": "May-October"}},{"type": "Feature", "geometry": {"type": "Point", "coordinates": [-123.13955439, 49.28451988]}, "properties": {"maintainer": "Engineering", "name": "Fountain location:\nCardero & Burnaby", "mapid": "DFENG0005", "location": "In the mini park at Cardero & Burnaby", "photo_name": "P2080275.JPG", "pet_friendly": "N", "geo_local_area": "West End", "in_operation": "May-October"}},{"type": "Feature", "geometry": {"type": "Point", "coordinates": [-123.06939067, 49.2678194]}, "properties": {"maintainer": "Engineering", "name": "Fountain location:\nCommercial & 3rd", "mapid": "DFENG0021", "location": "Northeast corner of Commercial & 3rd", "photo_name": "Commercial&3rd.jpg", "pet_friendly": "Y", "geo_local_area": "Grandview-Woodland", "in_operation": "May-October"}},{"type": "Feature", "geometry": {"type": "Point", "coordinates": [-123.14264686, 49.29067407]}, "properties": {"maintainer": "Engineering", "name": "Fountain location:\nComox & Chilco", "mapid": "DFENG0026", "location": "In mini park at Comox & Chilco", "photo_name": "Comox&Chilco.jpg", "pet_friendly": "N", "geo_local_area": "West End", "in_operation": "May-October"}},{"type": "Feature", "geometry": {"type": "Point", "coordinates": [-123.13969, 49.2887857]}, "properties": {"maintainer": "Engineering", "name": "Fountain location:\nComox & Denman", "mapid": "DFENG0027", "location": "Northwest corner of Comox & Denman", "photo_name": "Comox&Denman.jpg", "pet_friendly": "N", "geo_local_area": "West End", "in_operation": "Year Round"}},{"type": "Feature", "geometry": {"type": "Point", "coordinates": [-123.13854854, 49.28922483]}, "properties": {"maintainer": "Engineering", "name": "Fountain location:\nDenman & Nelson", "mapid": "DFENG0033", "location": "Southwest corner of Denman & Nelson", "photo_name": "P3011141.JPG", "pet_friendly": "N", "geo_local_area": "West End", "in_operation": "May-October"}},{"type": "Feature", "geometry": {"type": "Point", "coordinates": [-123.084037, 49.2365274]}, "properties": {"maintainer": "Engineering", "name": "Fountain location:\nElgin & 37th", "mapid": "DFENG0017", "location": "Northwest corner of Elgin & 37th", "photo_name": "Elgin&37th.jpg", "pet_friendly": "N", "geo_local_area": "Kensington-Cedar Cottage", "in_operation": "May-October"}},{"type": "Feature", "geometry": {"type": "Point", "coordinates": [-123.14128655, 49.28977703]}, "properties": {"maintainer": "Engineering", "name": "Fountain location:\nGilford & Comox", "mapid": "DFENG0028", "location": "Northwest corner of Gilford & Comox", "photo_name": "Comox&Gilford.jpg", "pet_friendly": "N", "geo_local_area": "West End", "in_operation": "May-October"}},{"type": "Feature", "geometry": {"type": "Point", "coordinates": [-123.119937, 49.281542]}, "properties": {"maintainer": "Engineering", "name": "Fountain location:\nGranville & Robson", "mapid": "DFENG0019", "location": "Northwest corner of Granville & Robson", "photo_name": "Granville Robson 2.JPG", "pet_friendly": "N", "geo_local_area": "Downtown", "in_operation": "Year Round"}},{"type": "Feature", "geometry": {"type": "Point", "coordinates": [-123.100784, 49.2610594]}, "properties": {"maintainer": "Engineering", "name": "Fountain location:\nMain & 11th", "mapid": "DFENG0023", "location": "Southeast corner of Main & 11th", "photo_name": "Main&11th.jpg", "pet_friendly": "N", "geo_local_area": "Mount Pleasant", "in_operation": "Year Round"}},{"type": "Feature", "geometry": {"type": "Point", "coordinates": [-123.140508, 49.282385]}, "properties": {"maintainer": "Engineering", "name": "Fountain location:\nNicola & Beach", "mapid": "DFENG0008", "location": "Northeast corner of Nicola & Beach", "photo_name": "Nicola Beach 1.JPG", "pet_friendly": "N", "geo_local_area": "West End", "in_operation": "May-October"}},{"type": "Feature", "geometry": {"type": "Point", "coordinates": [-123.122156, 49.262387]}, "properties": {"maintainer": "Engineering", "name": "Fountain location: 10th & Willow", "mapid": "DFENG0051", "location": "Northwest corner of 10th & Willow", "pet_friendly": "N", "geo_local_area": "Fairview", "in_operation": "Year Round"}},{"type": "Feature", "geometry": {"type": "Point", "coordinates": [-123.11323, 49.217003]}, "properties": {"maintainer": "Engineering", "name": "Fountain location: 375 W 59th Avenue", "mapid": "DFENG0048", "location": "Northeast corner of Alberta St and W 59th Ave", "pet_friendly": "N", "geo_local_area": "Marpole", "in_operation": "Year Round"}},{"type": "Feature", "geometry": {"type": "Point", "coordinates": [-123.117008, 49.238962]}, "properties": {"maintainer": "Engineering", "name": "Fountain location: 4963 Cambie St", "mapid": "DFENG0047", "location": "Northwest corner of Cambie and W 35th", "photo_name": "Cambie&W35th.jpg", "pet_friendly": "N", "geo_local_area": "South Cambie", "in_operation": "Year Round"}},{"type": "Feature", "geometry": {"type": "Point", "coordinates": [-123.114544, 49.262294]}, "properties": {"maintainer": "Engineering", "name": "Fountain location: Cambie & 10th", "mapid": "DFENG0031", "location": "Northeast corner of Cambie & 10th", "pet_friendly": "N", "geo_local_area": "Mount Pleasant", "in_operation": "Year Round"}},{"type": "Feature", "geometry": {"type": "Point", "coordinates": [-123.116339, 49.245083]}, "properties": {"maintainer": "Engineering", "name": "Fountain location: Cambie & 29th Avenue", "mapid": "DFENG0044", "location": "Southwest corner of Cambie & 29th Avenue", "pet_friendly": "N", "geo_local_area": "South Cambie", "in_operation": "Year Round"}},{"type": "Feature", "geometry": {"type": "Point", "coordinates": [-123.127987, 49.229344]}, "properties": {"maintainer": "Engineering", "name": "Fountain location: Oak & 46th", "mapid": "DFENG0037", "location": "Northeast corner of Oak & 46th", "photo_name": "Oak&46th.jpg", "pet_friendly": "N", "geo_local_area": "Oakridge", "in_operation": "Year Round"}},{"type": "Feature", "geometry": {"type": "Point", "coordinates": [-123.031131, 49.205331]}, "properties": {"maintainer": "Engineering", "name": "Fountain location: River District Crossing & E Kent Ave North", "mapid": "DFENG0041", "location": "Northeast corner of River District Crossing & E Kent Ave North", "pet_friendly": "N", "geo_local_area": "Killarney", "in_operation": "May-October"}},{"type": "Feature", "geometry": {"type": "Point", "coordinates": [-123.123513, 49.279672]}, "properties": {"maintainer": "Engineering", "name": "Fountain location:Nelson & Howe", "mapid": "DFENG0038", "location": "Southeast corner of Nelson & Howe", "pet_friendly": "N", "geo_local_area": "Downtown", "in_operation": "Year Round"}},{"type": "Feature", "geometry": {"type": "Point", "coordinates": [-123.167863, 49.271674]}, "properties": {"maintainer": "Engineering", "name": "Fountain location:Pt.Grey & MacDonald", "mapid": "DFENG0036", "location": "Northwest corner of Pt. Grey & MacDonald", "photo_name": "Pt. Grey&MacDonald.jpg", "pet_friendly": "N", "geo_local_area": "Kitsilano", "in_operation": "Year Round"}},{"type": "Feature", "geometry": {"type": "Point", "coordinates": [-123.089225, 49.262628]}, "properties": {"maintainer": "Engineering", "name": "Fountian Location: Fraser & Broadway", "mapid": "DFENG0035", "location": "Northwest corner of Fraser & Broadway", "pet_friendly": "N", "geo_local_area": "Mount Pleasant", "in_operation": "Year Round"}},{"type": "Feature", "geometry": {"type": "Point", "coordinates": [-123.0241254441794, 49.27596410057139]}, "properties": {"maintainer": "Parks", "name": "Fountain location:\nAdanac Park", "mapid": "DFPB0002", "location": "SW side of Field house", "in_operation": "spring to fall", "geo_local_area": "Hastings-Sunrise"}},{"type": "Feature", "geometry": {"type": "Point", "coordinates": [-123.10617896100499, 49.278917130264055]}, "properties": {"maintainer": "Parks", "name": "Fountain location:\nAndy Livingstone Park - North of basketball court", "mapid": "DFPB0005", "location": "by amphitheatre steps near bas", "in_operation": "spring to fall", "geo_local_area": "Downtown"}},{"type": "Feature", "geometry": {"type": "Point", "coordinates": [-123.12092403672209, 49.28602527394457]}, "properties": {"photo_name": "Discovery Square - drinking fountain - 2005.JPG", "name": "Fountain location:\nArt Phillips Park (Discovery Square)", "mapid": "DFPB0009", "location": "NW plaza", "maintainer": "Parks", "geo_local_area": "Downtown", "in_operation": "spring to fall"}},{"type": "Feature", "geometry": {"type": "Point", "coordinates": [-123.17532748987207, 49.24571941099743]}, "properties": {"maintainer": "Parks", "name": "Fountain location:\nBalaclava Park", "mapid": "DFPB0010", "location": "W of wading pool", "in_operation": "spring to fall", "geo_local_area": "Dunbar-Southlands"}},{"type": "Feature", "geometry": {"type": "Point", "coordinates": [-123.05046757249366, 49.290521395563395]}, "properties": {"maintainer": "Parks", "name": "Fountain location:\nBurrard View Park", "mapid": "DFPB0013", "location": "N-side of wading pool", "in_operation": "spring to fall", "geo_local_area": "Hastings-Sunrise"}},{"type": "Feature", "geometry": {"type": "Point", "coordinates": [-123.07677246160404, 49.260897510427014]}, "properties": {"mapid": "DFPB0192", "geo_local_area": "Kensington-Cedar Cottage", "maintainer": "Parks", "name": "Fountain location:\nCedar Cottage Park", "location": "Near Sport courts"}},{"type": "Feature", "geometry": {"type": "Point", "coordinates": [-123.19167358377561, 49.24969048752799]}, "properties": {"maintainer": "Parks", "name": "Fountain location:\nChaldecott Park", "mapid": "DFPB0016", "location": "W-side of spray park", "in_operation": "spring to fall", "geo_local_area": "Dunbar-Southlands"}},{"type": "Feature", "geometry": {"type": "Point", "coordinates": [-123.0790458346744, 49.26174978155622]}, "properties": {"maintainer": "Parks", "name": "Fountain location:\nChina Creek South Park", "mapid": "DFPB0019", "location": "S-side of skate park", "in_operation": "spring to fall", "geo_local_area": "Mount Pleasant"}},{"type": "Feature", "geometry": {"type": "Point", "coordinates": [-123.07309180917856, 49.256851681418766]}, "properties": {"mapid": "DFPB0020", "maintainer": "Parks", "name": "Fountain location:\nClark Park", "geo_local_area": "Kensington-Cedar Cottage"}},{"type": "Feature", "geometry": {"type": "Point", "coordinates": [-123.05167063296136, 49.27138699405095]}, "properties": {"maintainer": "Parks", "name": "Fountain location:\nClinton Park - North side of ball diamond", "mapid": "DFPB0022", "location": "N-side of B-ball diamond", "in_operation": "spring to fall", "geo_local_area": "Hastings-Sunrise"}},{"type": "Feature", "geometry": {"type": "Point", "coordinates": [-123.03636462915456, 49.2370512820887]}, "properties": {"maintainer": "Parks", "name": "Fountain location:\nCollingwood Park", "mapid": "DFPB0024", "location": "in front of wading pool", "in_operation": "spring to fall", "geo_local_area": "Renfrew-Collingwood"}},{"type": "Feature", "geometry": {"type": "Point", "coordinates": [-123.15932134359271, 49.26297477699926]}, "properties": {"photo_name": "Connaught Park - drinking fountain - 2005.JPG", "name": "Fountain location:\nConnaught Park - East side of fieldhouse", "mapid": "DFPB0027", "location": "near fieldhouse", "maintainer": "Parks", "geo_local_area": "Kitsilano", "in_operation": "year-round"}},{"type": "Feature", "geometry": {"type": "Point", "coordinates": [-123.11304201854614, 49.27391462297168]}, "properties": {"mapid": "DFPB0028", "maintainer": "Parks", "name": "Fountain location:\nCoopers' Park", "geo_local_area": "Downtown"}},{"type": "Feature", "geometry": {"type": "Point", "coordinates": [-123.11463403132457, 49.2729040014691]}, "properties": {"photo_name": "Coopers Park - drinking fountain - 2005.JPG", "name": "Fountain location:\nCoopers' Park - underneath bridge, near basket", "mapid": "DFPB0029", "location": "underneath bridge, near basket", "maintainer": "Parks", "geo_local_area": "Downtown", "in_operation": "spring to fall"}},{"type": "Feature", "geometry": {"type": "Point", "coordinates": [-123.10299407627441, 49.27436956341148]}, "properties": {"mapid": "DFPB0031", "maintainer": "Parks", "name": "Fountain location:\nCreekside Park", "geo_local_area": "Downtown"}},{"type": "Feature", "geometry": {"type": "Point", "coordinates": [-123.13283432618276, 49.20551059072722]}, "properties": {"photo_name": "Ebisu Park - drinking fountain - 2008.JPG", "name": "Fountain location:\nEbisu Park", "mapid": "DFPB0037", "location": "near playground", "maintainer": "Parks", "geo_local_area": "Marpole", "in_operation": "spring to fall"}},{"type": "Feature", "geometry": {"type": "Point", "coordinates": [-123.14255817215084, 49.28752529728865]}, "properties": {"photo_name": "English Bay Park - drinking fountain - 2005.jpg", "name": "Fountain location:\nEnglish Bay Beach Park - Davie st entrance", "mapid": "DFPB0041", "location": "Davie st entrance", "maintainer": "Parks", "geo_local_area": "West End", "in_operation": "spring to fall"}},{"type": "Feature", "geometry": {"type": "Point", "coordinates": [-123.02996353965862, 49.25494765836279]}, "properties": {"maintainer": "Parks", "name": "Fountain location:\nFalaise Park", "mapid": "DFPB0044", "location": "in front of wading pool", "in_operation": "spring to fall", "geo_local_area": "Renfrew-Collingwood"}},{"type": "Feature", "geometry": {"type": "Point", "coordinates": [-123.04567976712876, 49.20831528164534]}, "properties": {"maintainer": "Parks", "name": "Fountain location:\nFraserview Golf Course - 6th tee", "mapid": "DFPB0049", "location": "6th tee", "in_operation": "spring to fall", "geo_local_area": "Killarney"}},{"type": "Feature", "geometry": {"type": "Point", "coordinates": [-123.05151778887551, 49.214039497855346]}, "properties": {"maintainer": "Parks", "name": "Fountain location:\nFraserview Golf Course - clubhouse building", "mapid": "DFPB0048", "location": "clubhouse building", "in_operation": "spring to fall", "geo_local_area": "Killarney"}},{"type": "Feature", "geometry": {"type": "Point", "coordinates": [-123.05841268395888, 49.268494930486206]}, "properties": {"maintainer": "Parks", "name": "Fountain location:\nGarden Park", "mapid": "DFPB0051", "location": "N-side of field house", "in_operation": "spring to fall", "geo_local_area": "Grandview-Woodland"}},{"type": "Feature", "geometry": {"type": "Point", "coordinates": [-123.03139559954171, 49.236603275262475]}, "properties": {"photo_name": "Gaston Park - drinking fountain - 2005.JPG", "name": "Fountain location:\nGaston Park", "mapid": "DFPB0052", "location": "near basketball court", "maintainer": "Parks", "geo_local_area": "Renfrew-Collingwood", "in_operation": "spring to fall"}},{"type": "Feature", "geometry": {"type": "Point", "coordinates": [-123.12977813047853, 49.271907974746064]}, "properties": {"maintainer": "Parks", "name": "Fountain location:\nGeorge Wainborn Park", "mapid": "DFPB0054", "location": "NE corner near seawall", "in_operation": "spring to fall", "geo_local_area": "Downtown"}},{"type": "Feature", "geometry": {"type": "Point", "coordinates": [-123.12316503926135, 49.29064536983438]}, "properties": {"maintainer": "Parks", "name": "Fountain location:\nHarbour Green Park - foot of Jervis Mews", "mapid": "DFPB0061", "location": "foot of Jervis Mews", "in_operation": "spring to fall", "geo_local_area": "Downtown"}},{"type": "Feature", "geometry": {"type": "Point", "coordinates": [-123.04060853748953, 49.280475188141146]}, "properties": {"photo_name": "Hastings Community Park - drinking fountain - 2005.JPG", "name": "Fountain location:\nHastings Community Park - SE of tennis courts", "mapid": "DFPB0064", "location": "besides path leading to spray", "maintainer": "Parks", "geo_local_area": "Hastings-Sunrise", "in_operation": "spring to fall"}},{"type": "Feature", "geometry": {"type": "Point", "coordinates": [-123.04294354474824, 49.28325024558667]}, "properties": {"photo_name": "Hastings Park (Empire Field) - drinking fountain - 2006.JPG", "name": "Fountain location:\nHastings Park - Italian gardens", "mapid": "DFPB0065", "location": "near skate park", "maintainer": "Parks", "geo_local_area": "Hastings-Sunrise", "in_operation": "spring to fall"}},{"type": "Feature", "geometry": {"type": "Point", "coordinates": [-123.03448505726166, 49.28299828401808]}, "properties": {"photo_name": "Hastings Park (Empire Field) - drinking fountain - 2006.JPG", "name": "Fountain location:\nHastings Park -Plateau Sport Parks / Empire Fields", "mapid": "DFPB0069", "location": "East of playgrounds", "maintainer": "Parks", "geo_local_area": "Hastings-Sunrise"}},{"type": "Feature", "geometry": {"type": "Point", "coordinates": [-123.034264, 49.282563]}, "properties": {"photo_name": "Hastings Park (Empire Field) - drinking fountain - 2006.JPG", "name": "Fountain location:\nHastings Park -Plateau Sport Parks / Empire Fields", "mapid": "DFPB0070", "location": "empire field - soccer fields", "maintainer": "Parks", "geo_local_area": "Hastings-Sunrise"}},{"type": "Feature", "geometry": {"type": "Point", "coordinates": [-123.06197074568475, 49.25403462695769]}, "properties": {"maintainer": "Parks", "name": "Fountain location:\nJohn Hendry (Trout Lake) Park", "mapid": "DFPB0074", "location": "nearby beach", "in_operation": "spring to fall", "geo_local_area": "Kensington-Cedar Cottage"}},{"type": "Feature", "geometry": {"type": "Point", "coordinates": [-123.07427486768654, 49.238243292967304]}, "properties": {"maintainer": "Parks", "name": "Fountain location:\nKensington Park", "mapid": "DFPB0077", "location": "between baseball diamond and parking lots", "in_operation": "spring to fall", "geo_local_area": "Kensington-Cedar Cottage"}},{"type": "Feature", "geometry": {"type": "Point", "coordinates": [-123.0745638442458, 49.247430484145035]}, "properties": {"photo_name": "Kingcrest Park - drinking fountain - 2005.JPG", "name": "Fountain location:\nKingcrest Park", "mapid": "DFPB0081", "location": "E-side of washroom", "maintainer": "Parks", "geo_local_area": "Kensington-Cedar Cottage", "in_operation": "spring to fall"}},{"type": "Feature", "geometry": {"type": "Point", "coordinates": [-123.10632012065498, 49.21951059074085]}, "properties": {"maintainer": "Parks", "name": "Fountain location:\nLangara Golf Course - East of tennis courts", "mapid": "DFPB0087", "location": "56th and Ontario", "in_operation": "spring to fall", "geo_local_area": "Oakridge"}},{"type": "Feature", "geometry": {"type": "Point", "coordinates": [-123.18011946249462, 49.26802887520497]}, "properties": {"photo_name": "McBride Park - drinking fountain - 2007.JPG", "name": "Fountain location:\nMcBride Park", "mapid": "DFPB0096", "location": "S of playground", "maintainer": "Parks", "geo_local_area": "Kitsilano", "in_operation": "spring to fall"}},{"type": "Feature", "geometry": {"type": "Point", "coordinates": [-123.16784850616567, 49.221060000503236]}, "properties": {"maintainer": "Parks", "name": "Fountain location:\nMcCleery Golf Course - clubhouse building", "mapid": "DFPB0098", "location": "clubhouse building", "in_operation": "spring to fall", "geo_local_area": "Kerrisdale"}},{"type": "Feature", "geometry": {"type": "Point", "coordinates": [-123.16961351863812, 49.22069559153487]}, "properties": {"maintainer": "Parks", "name": "Fountain location:\nMcCleery Golf Course - driving range", "mapid": "DFPB0099", "location": "driving range", "in_operation": "spring to fall", "geo_local_area": "Kerrisdale"}},{"type": "Feature", "geometry": {"type": "Point", "coordinates": [-123.08690730640086, 49.231445967892725]}, "properties": {"maintainer": "Parks", "name": "Fountain location:\nMemorial South Park - West of wading pool", "mapid": "DFPB0103", "location": "W-side of wading pool", "in_operation": "year-round", "geo_local_area": "Sunset"}},{"type": "Feature", "geometry": {"type": "Point", "coordinates": [-123.08458399526312, 49.21493280370756]}, "properties": {"maintainer": "Parks", "name": "Fountain location:\nMoberly Park - West of tennis courts", "mapid": "DFPB0105", "location": "in front of tennis courts", "in_operation": "spring to fall", "geo_local_area": "Sunset"}},{"type": "Feature", "geometry": {"type": "Point", "coordinates": [-123.0742017723588, 49.27329802539632]}, "properties": {"maintainer": "Parks", "name": "Fountain location:\nMosaic Creek Park", "mapid": "DFPB0108", "location": "near children's play area", "in_operation": "spring to fall", "geo_local_area": "Grandview-Woodland"}},{"type": "Feature", "geometry": {"type": "Point", "coordinates": [-123.03665048696202, 49.28937437677413]}, "properties": {"photo_name": "New Brighton - drinking fountain 2 - 2007.JPG", "name": "Fountain location:\nNew Brighton Park - South of pool", "mapid": "DFPB0113", "location": "S-side of pool", "maintainer": "Parks", "geo_local_area": "Hastings-Sunrise", "in_operation": "spring to fall"}},{"type": "Feature", "geometry": {"type": "Point", "coordinates": [-123.09404187251305, 49.28300722094974]}, "properties": {"mapid": "DFPB0119", "maintainer": "Parks", "name": "Fountain location:\nOppenheimer Park", "geo_local_area": "Strathcona"}},{"type": "Feature", "geometry": {"type": "Point", "coordinates": [-123.11352810609957, 49.2423803644047]}, "properties": {"photo_name": "Queen Elizabeth Park (Ontario Greenway) - drinking fountain 2 - 2006.JPG", "name": "Fountain location:\nQueen Elizabeth Park - At Conservatory", "mapid": "DFPB0125", "location": "At Conservatory", "maintainer": "Parks", "geo_local_area": "Riley Park", "in_operation": "spring to fall"}},{"type": "Feature", "geometry": {"type": "Point", "coordinates": [-123.09189692645658, 49.25789769612121]}, "properties": {"maintainer": "Parks", "name": "Fountain location:\nRobson Park", "mapid": "DFPB0130", "location": "N-side of wading pool", "in_operation": "spring to fall", "geo_local_area": "Mount Pleasant"}},{"type": "Feature", "geometry": {"type": "Point", "coordinates": [-123.03061150164847, 49.27025397819598]}, "properties": {"photo_name": "Rupert Park - drinking fountain 1 - 2007.JPG", "name": "Fountain location:\nRupert Park - East of fieldhouse", "mapid": "DFPB0136", "location": "E-side of Field house", "maintainer": "Parks", "geo_local_area": "Hastings-Sunrise", "in_operation": "spring to fall"}},{"type": "Feature", "geometry": {"type": "Point", "coordinates": [-123.12613848786123, 49.29975598431441]}, "properties": {"mapid": "DFPB0155", "in_operation": "spring to fall", "maintainer": "Parks", "name": "Fountain location:\nStanley Park - Brockton Oval Fieldhouse", "location": "brockton oval"}},{"type": "Feature", "geometry": {"type": "Point", "coordinates": [-123.148332, 49.310653]}, "properties": {"mapid": "DFPB0158", "in_operation": "spring to fall", "maintainer": "Parks", "name": "Fountain location:\nStanley Park - Brockton Point Viewpoint", "location": "Brockton point - lighthouse"}},{"type": "Feature", "geometry": {"type": "Point", "coordinates": [-123.14870677517186, 49.293751732669826]}, "properties": {"mapid": "DFPB0145", "in_operation": "spring to fall", "maintainer": "Parks", "name": "Fountain location:\nStanley Park - Ceperley Washrooms", "location": "Ceperley washrooms"}},{"type": "Feature", "geometry": {"type": "Point", "coordinates": [-123.148332, 49.310653]}, "properties": {"mapid": "DFPB0160", "in_operation": "spring to fall", "maintainer": "Parks", "name": "Fountain location:\nStanley Park - Lawn Bowling Club", "location": "Lawn Bowling"}},{"type": "Feature", "geometry": {"type": "Point", "coordinates": [-123.12128509247478, 49.299634364378655]}, "properties": {"maintainer": "Parks", "mapid": "DFPB0154", "location": "Legends Of The Moon - Washroom", "name": "Fountain location:\nStanley Park - Legends Of The Moon Washroom"}},{"type": "Feature", "geometry": {"type": "Point", "coordinates": [-123.14271559277007, 49.312494515728226]}, "properties": {"mapid": "DFPB0147", "in_operation": "spring to fall", "maintainer": "Parks", "name": "Fountain location:\nStanley Park - Prospect Point Washrooms", "location": "prospect point washrooms"}},{"type": "Feature", "geometry": {"type": "Point", "coordinates": [-123.13379001924541, 49.29960619520646]}, "properties": {"maintainer": "Parks", "mapid": "DFPB0157", "location": "pavillion outside washrooms", "name": "Fountain location:\nStanley Park - Stanley Park Pavilion"}},{"type": "Feature", "geometry": {"type": "Point", "coordinates": [-123.1469851874114, 49.292345397302135]}, "properties": {"mapid": "DFPB0146", "in_operation": "spring to fall", "maintainer": "Parks", "name": "Fountain location:\nStanley Park - West of Restaurant", "location": "W - side of Fish House"}},{"type": "Feature", "geometry": {"type": "Point", "coordinates": [-123.13451408205303, 49.301668197766205]}, "properties": {"maintainer": "Parks", "mapid": "DFPB0148", "name": "Fountain location:\nStanley Park - West side of Stanley Park Train"}},{"type": "Feature", "geometry": {"type": "Point", "coordinates": [-123.08556206292319, 49.27601569903952]}, "properties": {"maintainer": "Parks", "name": "Fountain location:\nStrathcona Park - North west of basketball court", "mapid": "DFPB0163", "location": "besides basketball court", "in_operation": "spring to fall", "geo_local_area": "Strathcona"}},{"type": "Feature", "geometry": {"type": "Point", "coordinates": [-123.09646723658864, 49.22295426740642]}, "properties": {"maintainer": "Parks", "name": "Fountain location:\nSunset Park", "mapid": "DFPB0167", "location": "front of wading pool", "in_operation": "spring to fall", "geo_local_area": "Sunset"}},{"type": "Feature", "geometry": {"type": "Point", "coordinates": [-123.09857497062325, 49.25746168419921]}, "properties": {"maintainer": "Parks", "name": "Fountain location:\nTea Swamp Park", "mapid": "DFPB0169", "location": "NE corner of park", "in_operation": "spring to fall", "geo_local_area": "Mount Pleasant"}},{"type": "Feature", "geometry": {"type": "Point", "coordinates": [-123.11825117290374, 49.22847607289638]}, "properties": {"maintainer": "Parks", "name": "Fountain location:\nTisdall Park", "mapid": "DFPB0171", "location": "near North baseball diamond", "in_operation": "spring to fall", "geo_local_area": "Oakridge"}},{"type": "Feature", "geometry": {"type": "Point", "coordinates": [-123.05011946685549, 49.26062486270534]}, "properties": {"mapid": "DFPB0187", "geo_local_area": "Renfrew-Collingwood", "maintainer": "Parks", "name": "Fountain location:\nVancouver Technical HS", "location": "NE of the sport field"}},{"type": "Feature", "geometry": {"type": "Point", "coordinates": [-123.12992421918467, 49.23872068169798]}, "properties": {"maintainer": "Parks", "name": "Fountain location:\nVandusen Botanical Garden - upper gardens", "mapid": "DFPB0174", "location": "upper gardens", "in_operation": "spring to fall", "geo_local_area": "Shaughnessy"}},{"type": "Feature", "geometry": {"type": "Point", "coordinates": [-123.06674701318637, 49.27171896210611]}, "properties": {"photo_name": "Victoria Park - drinking fountain - 2007.JPG", "name": "Fountain location:\nVictoria Park", "mapid": "DFPB0177", "location": "adjacent to children's play area", "maintainer": "Parks", "geo_local_area": "Grandview-Woodland", "in_operation": "spring to fall"}},{"type": "Feature", "geometry": {"type": "Point", "coordinates": [-123.11005097846787, 49.2819511927667]}, "properties": {"photo_name": "Victory Square - drinking fountain - 2008.JPG", "name": "Fountain location:\nVictory Square", "mapid": "DFPB0178", "location": "south corner of park", "maintainer": "Parks", "geo_local_area": "Downtown", "in_operation": "spring to fall"}},{"type": "Feature", "geometry": {"type": "Point", "coordinates": [-123.1280300840173, 49.285296255875174]}, "properties": {"photo_name": "West End Minipark @ Bute & Haro - drinking fountain - 2005.JPG", "name": "Fountain location:\nWest End minipark", "mapid": "DFPB0180", "location": "Bute & Haro", "maintainer": "Parks", "geo_local_area": "West End", "in_operation": "spring to fall"}},{"type": "Feature", "geometry": {"type": "Point", "coordinates": [-123.07340875242025, 49.278548135565664]}, "properties": {"maintainer": "Parks", "name": "Fountain location:\nWoodland Park", "mapid": "DFPB0185", "location": "in front of wading pool", "in_operation": "spring to fall", "geo_local_area": "Grandview-Woodland"}},{"type": "Feature", "geometry": {"type": "Point", "coordinates": [-123.136177, 49.269566]}, "properties": {"maintainer": "Engineering", "name": "Bottle Filling Station location: \nGranville Island Pumping Station", "mapid": "DFENG0502", "location": "North side of sewage pumping station on seawall east of the granville island entrance", "photo_name": "GranvilleIslandPumpingStation.jpg", "pet_friendly": "N", "geo_local_area": "Fairview", "in_operation": "Year Round"}},{"type": "Feature", "geometry": {"type": "Point", "coordinates": [-123.058912, 49.234752]}, "properties": {"maintainer": "Engineering", "name": "Fountain location:\n39th & Nanaimo", "mapid": "DFENG0002", "location": "Southwest corner of 39th & Nanaimo", "photo_name": "Nanaimo&39th.jpg", "pet_friendly": "N", "geo_local_area": "Kensington-Cedar Cottage", "in_operation": "May-October"}},{"type": "Feature", "geometry": {"type": "Point", "coordinates": [-123.112967, 49.2646599]}, "properties": {"maintainer": "Engineering", "name": "Fountain location:\n7th & Yukon", "mapid": "DFENG0014", "location": "Southwest corner of 7th & Yukon", "photo_name": "Yukon&7th.jpg", "pet_friendly": "N", "geo_local_area": "Mount Pleasant", "in_operation": "May-October"}},{"type": "Feature", "geometry": {"type": "Point", "coordinates": [-123.12923210062, 49.2792475453812]}, "properties": {"maintainer": "Engineering", "name": "Fountain location:\nBurrard & Davie", "mapid": "DFENG0024", "location": "Northwest corner of Burrard & Davie", "photo_name": "Davie&Burrard.jpg", "pet_friendly": "N", "geo_local_area": "West End", "in_operation": "Year Round"}},{"type": "Feature", "geometry": {"type": "Point", "coordinates": [-123.136516, 49.2867384]}, "properties": {"maintainer": "Engineering", "name": "Fountain location:\nComox & Cardero", "mapid": "DFENG0025", "location": "Northeast corner of Comox & Cardero", "photo_name": "Comox&Cardero.jpg", "pet_friendly": "N", "geo_local_area": "West End", "in_operation": "Year Round"}},{"type": "Feature", "geometry": {"type": "Point", "coordinates": [-123.14022516, 49.29049866]}, "properties": {"maintainer": "Engineering", "name": "Fountain location:\nGilford & Nelson", "mapid": "DFENG0006", "location": "Northwest corner of Gilford & Nelson", "photo_name": "P3011198.jpg", "pet_friendly": "N", "geo_local_area": "West End", "in_operation": "May-October"}},{"type": "Feature", "geometry": {"type": "Point", "coordinates": [-123.139586, 49.2173117]}, "properties": {"maintainer": "Engineering", "name": "Fountain location:\nGranville & 59th", "mapid": "DFENG0029", "location": "Northeast corner of Granville & 59th", "photo_name": "Granville&59th.jpg", "pet_friendly": "N", "geo_local_area": "Marpole", "in_operation": "Year Round"}},{"type": "Feature", "geometry": {"type": "Point", "coordinates": [-123.054448, 49.280998]}, "properties": {"maintainer": "Engineering", "name": "Fountain location:\nHastings & Kamloops", "mapid": "DFENG0034", "location": "Northeast corner of Hastings & Kamloops", "photo_name": "Hastings Kamploops 1.JPG", "pet_friendly": "N", "geo_local_area": "Hastings-Sunrise", "in_operation": "May-October"}},{"type": "Feature", "geometry": {"type": "Point", "coordinates": [-123.13333675, 49.28571023]}, "properties": {"maintainer": "Engineering", "name": "Fountain location:\nNelson & Broughton", "mapid": "DFENG0007", "location": "In mini park at Nelson & Broughton", "photo_name": "P2130403.JPG", "pet_friendly": "N", "geo_local_area": "West End", "in_operation": "May-October"}},{"type": "Feature", "geometry": {"type": "Point", "coordinates": [-123.13827002, 49.29345716]}, "properties": {"maintainer": "Engineering", "name": "Fountain location:\nRobson & Chilco", "mapid": "DFENG0010", "location": "In mini park at Robson & Chilco", "photo_name": "P2020133.JPG", "pet_friendly": "N", "geo_local_area": "West End", "in_operation": "May-October"}},{"type": "Feature", "geometry": {"type": "Point", "coordinates": [-123.121414, 49.258738]}, "properties": {"maintainer": "Engineering", "name": "Fountain location: 733 W 14th Avenue", "mapid": "DFENG0046", "location": "North side of 14th Avenue", "pet_friendly": "N", "geo_local_area": "Fairview", "in_operation": "Year Round"}},{"type": "Feature", "geometry": {"type": "Point", "coordinates": [-123.133952, 49.281882]}, "properties": {"maintainer": "Engineering", "name": "Fountain location: Davie & Bute (Jim Deva Plaza)", "mapid": "DFENG0039", "location": "1200 Davie Street", "pet_friendly": "Y", "geo_local_area": "West End", "in_operation": "Year Round"}},{"type": "Feature", "geometry": {"type": "Point", "coordinates": [-123.024717, 49.234702]}, "properties": {"maintainer": "Engineering", "name": "Fountain location: Ormidale St & Vanness Avenue", "mapid": "DFENG0043", "location": "Southeast corner of Ormidale St & Vanness Avenue", "pet_friendly": "N", "geo_local_area": "Renfrew-Collingwood", "in_operation": "Year Round"}},{"type": "Feature", "geometry": {"type": "Point", "coordinates": [-123.02723857691211, 49.235052244781656]}, "properties": {"photo_name": "Aberdeen Park - drinking fountain - 2005.JPG", "name": "Fountain location:\nAberdeen Park", "mapid": "DFPB0001", "location": "plaza", "maintainer": "Parks", "geo_local_area": "Renfrew-Collingwood", "in_operation": "spring to fall"}},{"type": "Feature", "geometry": {"type": "Point", "coordinates": [-123.14237717569814, 49.28566025871612]}, "properties": {"photo_name": "Alexandra Park - drinking fountain - 2003.jpg", "name": "Fountain location:\nAlexandra Park", "mapid": "DFPB0003", "location": "west plaza gateway", "maintainer": "Parks", "geo_local_area": "West End", "in_operation": "spring to fall"}},{"type": "Feature", "geometry": {"type": "Point", "coordinates": [-123.10355994686793, 49.27805711332229]}, "properties": {"maintainer": "Parks", "name": "Fountain location:\nAndy Livingstone Park - South of soccer fields", "mapid": "DFPB0006", "location": "north side of fieldhouse", "in_operation": "spring to fall", "geo_local_area": "Downtown"}},{"type": "Feature", "geometry": {"type": "Point", "coordinates": [-123.15530331979778, 49.26223376304301]}, "properties": {"photo_name": "Arbutus Greenway Park - drinking fountain - 2005.JPG", "name": "Fountain location:\nArbutus Greenway Park", "mapid": "DFPB0007", "location": "S-side of playground", "maintainer": "Parks", "geo_local_area": "Kitsilano", "in_operation": "spring to fall"}},{"type": "Feature", "geometry": {"type": "Point", "coordinates": [-123.0560918132228, 49.215625829513684]}, "properties": {"maintainer": "Parks", "name": "Fountain location:\nBobolink Park", "mapid": "DFPB0012", "location": "in front of wading pool", "in_operation": "spring to fall", "geo_local_area": "Victoria-Fraserview"}},{"type": "Feature", "geometry": {"type": "Point", "coordinates": [-123.06621079065098, 49.24755549015022]}, "properties": {"maintainer": "Parks", "name": "Fountain location:\nBrewers Park", "mapid": "DFPB0132", "location": "S-side of wading pool", "in_operation": "spring to fall", "geo_local_area": "Kensington-Cedar Cottage"}},{"type": "Feature", "geometry": {"type": "Point", "coordinates": [-123.10180591766984, 49.28475995490833]}, "properties": {"mapid": "DFPB0030", "maintainer": "Parks", "name": "Fountain location:\nCRAB Park at Portside", "geo_local_area": "Downtown"}},{"type": "Feature", "geometry": {"type": "Point", "coordinates": [-123.12588611678844, 49.26811789687622]}, "properties": {"maintainer": "Parks", "name": "Fountain location:\nCharleson Park", "mapid": "DFPB0017", "location": "N of school off of seawall", "in_operation": "spring to fall", "geo_local_area": "Fairview"}},{"type": "Feature", "geometry": {"type": "Point", "coordinates": [-123.08311885257991, 49.2644778372994]}, "properties": {"maintainer": "Parks", "name": "Fountain location:\nChina Creek North Park", "mapid": "DFPB0018", "location": "S central side along jogging c", "in_operation": "spring to fall", "geo_local_area": "Mount Pleasant"}},{"type": "Feature", "geometry": {"type": "Point", "coordinates": [-123.11299013036627, 49.231930146654]}, "properties": {"photo_name": "Columbia Park - drinking fountain - 2005.JPG", "name": "Fountain location:\nColumbia Park", "mapid": "DFPB0025", "location": "in front of wading pool", "maintainer": "Parks", "geo_local_area": "Oakridge", "in_operation": "spring to fall"}},{"type": "Feature", "geometry": {"type": "Point", "coordinates": [-123.16141535959855, 49.26187335311721]}, "properties": {"mapid": "DFPB0026", "maintainer": "Parks", "name": "Fountain location:\nConnaught Park - North of playground", "geo_local_area": "Kitsilano"}},{"type": "Feature", "geometry": {"type": "Point", "coordinates": [-123.12570510564845, 49.2717379729765]}, "properties": {"maintainer": "Parks", "name": "Fountain location:\nDavid Lam Park - South west of basketball courts", "mapid": "DFPB0032", "location": "near playground and tennis court", "in_operation": "spring to fall", "geo_local_area": "Downtown"}},{"type": "Feature", "geometry": {"type": "Point", "coordinates": [-123.13598610995344, 49.295091459181194]}, "properties": {"mapid": "DFPB0034", "in_operation": "year-round", "maintainer": "Parks", "name": "Fountain location:\nDevonian Harbour Park", "location": "near Stanley Park entrance"}},{"type": "Feature", "geometry": {"type": "Point", "coordinates": [-123.12230213245175, 49.25319458591402]}, "properties": {"photo_name": "Douglas Park - drinking fountain 1 - 2005.JPG", "name": "Fountain location:\nDouglas Park - Right side of wading pool", "mapid": "DFPB0035", "location": "in front of wading pool", "maintainer": "Parks", "geo_local_area": "South Cambie", "in_operation": "spring to fall"}},{"type": "Feature", "geometry": {"type": "Point", "coordinates": [-123.12426708261285, 49.27664197562022]}, "properties": {"mapid": "DFPB0040", "maintainer": "Parks", "name": "Fountain location:\nEmery Barnes Park - South west of playground", "geo_local_area": "Downtown"}},{"type": "Feature", "geometry": {"type": "Point", "coordinates": [-123.14302017755426, 49.28613326803492]}, "properties": {"photo_name": "English Bay Park - drinking fountain - 2005.jpg", "name": "Fountain location:\nEnglish Bay Beach Park - West of bath-house", "mapid": "DFPB0042", "location": "opposite entrance to bathhouse", "maintainer": "Parks", "geo_local_area": "West End", "in_operation": "year-round"}},{"type": "Feature", "geometry": {"type": "Point", "coordinates": [-123.13792016443693, 49.27900682012942]}, "properties": {"maintainer": "Parks", "name": "Fountain location:\nEnglish Bay Beach Park - concessions", "mapid": "DFPB0043", "location": "concessions", "in_operation": "spring to fall", "geo_local_area": "West End"}},{"type": "Feature", "geometry": {"type": "Point", "coordinates": [-123.15079343698349, 49.206524604715234]}, "properties": {"photo_name": "Fraser River Park - drinking fountain - 2007.JPG", "name": "Fountain location:\nFraser River Park - South west", "mapid": "DFPB0045", "maintainer": "Parks", "in_operation": "spring to fall", "geo_local_area": "Kerrisdale"}},{"type": "Feature", "geometry": {"type": "Point", "coordinates": [-123.04226773752653, 49.211400947247654]}, "properties": {"maintainer": "Parks", "name": "Fountain location:\nFraserview Golf Course - West of kerr st.", "mapid": "DFPB0047", "location": "West of kerr st.", "in_operation": "spring to fall", "geo_local_area": "Killarney"}},{"type": "Feature", "geometry": {"type": "Point", "coordinates": [-123.0513797921426, 49.21249686599673]}, "properties": {"maintainer": "Parks", "name": "Fountain location:\nFraserview Golf Course - driving range", "mapid": "DFPB0050", "location": "driving range", "in_operation": "spring to fall", "geo_local_area": "Killarney"}},{"type": "Feature", "geometry": {"type": "Point", "coordinates": [-123.06985194061305, 49.27384806653218]}, "properties": {"maintainer": "Parks", "name": "Fountain location:\nGrandview Park - South of playground", "mapid": "DFPB0056", "location": "By the Playground", "in_operation": "spring to fall", "geo_local_area": "Grandview-Woodland"}},{"type": "Feature", "geometry": {"type": "Point", "coordinates": [-123.13774119438631, 49.2672333741722]}, "properties": {"mapid": "DFPB0057", "maintainer": "Parks", "name": "Fountain location:\nGranville Loop Park", "geo_local_area": "Fairview"}},{"type": "Feature", "geometry": {"type": "Point", "coordinates": [-123.09555993281812, 49.26432582925835]}, "properties": {"maintainer": "Parks", "name": "Fountain location:\nGuelph Park", "mapid": "DFPB0059", "location": "w-side of tennis courts", "in_operation": "spring to fall", "geo_local_area": "Mount Pleasant"}},{"type": "Feature", "geometry": {"type": "Point", "coordinates": [-123.12167903062401, 49.29010735949297]}, "properties": {"maintainer": "Parks", "name": "Fountain location:\nHarbour Green Park - In front of washrooms", "mapid": "DFPB0062", "location": "near spray pool", "in_operation": "spring to fall", "geo_local_area": "Downtown"}},{"type": "Feature", "geometry": {"type": "Point", "coordinates": [-123.1232550375787, 49.291334384434094]}, "properties": {"maintainer": "Parks", "name": "Fountain location:\nHarbour Green Park - Viewpoint", "mapid": "DFPB0060", "location": "west, by seawall", "in_operation": "spring to fall", "geo_local_area": "Downtown"}},{"type": "Feature", "geometry": {"type": "Point", "coordinates": [-123.034264, 49.282563]}, "properties": {"photo_name": "Hastings Park (Empire Field) - drinking fountain - 2006.JPG", "name": "Fountain location:\nHastings Park -Plateau Sport Parks / Empire Fields", "mapid": "DFPB0068", "location": "East of basketball courts", "maintainer": "Parks", "geo_local_area": "Hastings-Sunrise"}},{"type": "Feature", "geometry": {"type": "Point", "coordinates": [-123.03337505588075, 49.28381447906172]}, "properties": {"photo_name": "Hastings Park (Empire Field) - drinking fountain - 2006.JPG", "name": "Fountain location:\nHastings Park -Plateau Sport Parks / Empire Fields", "mapid": "DFPB0067", "location": "north of empire field", "maintainer": "Parks", "geo_local_area": "Hastings-Sunrise", "in_operation": "spring to fall"}},{"type": "Feature", "geometry": {"type": "Point", "coordinates": [-123.03424848993296, 49.282669236667665]}, "properties": {"photo_name": "Hastings Park (Empire Field) - drinking fountain - 2006.JPG", "name": "Fountain location:\nHastings Park -Plateau Sport Parks / Empire Fields", "mapid": "DFPB0066", "location": "field house at empire field", "maintainer": "Parks", "geo_local_area": "Hastings-Sunrise", "in_operation": "spring to fall"}},{"type": "Feature", "geometry": {"type": "Point", "coordinates": [-123.106969, 49.2456626]}, "properties": {"mapid": "DFPB0071", "maintainer": "Parks", "name": "Fountain location:\nHillcrest Park - North of playground", "geo_local_area": "Riley Park"}},{"type": "Feature", "geometry": {"type": "Point", "coordinates": [-123.19172152670885, 49.27201435405524]}, "properties": {"mapid": "DFPB0073", "maintainer": "Parks", "name": "Fountain location:\nJericho Beach Park", "geo_local_area": "West Point Grey"}},{"type": "Feature", "geometry": {"type": "Point", "coordinates": [-123.10749900955489, 49.26426982320041]}, "properties": {"maintainer": "Parks", "name": "Fountain location:\nJonathan Rogers Park", "mapid": "DFPB0075", "location": "E-side of wading pool", "in_operation": "spring to fall", "geo_local_area": "Mount Pleasant"}},{"type": "Feature", "geometry": {"type": "Point", "coordinates": [-123.04532770779115, 49.22930011794244]}, "properties": {"photo_name": "Killarney Park - drinking fountain 2 - 2005.JPG", "name": "Fountain location:\nKillarney Park - E 45th Ave. @ Killarney St.", "mapid": "DFPB0080", "location": "north plaza", "maintainer": "Parks", "geo_local_area": "Killarney", "in_operation": "spring to fall"}},{"type": "Feature", "geometry": {"type": "Point", "coordinates": [-123.04186669078801, 49.227164074533114]}, "properties": {"photo_name": "Killarney Park - drinking fountain 1 - 2005.JPG", "name": "Fountain location:\nKillarney Park - East of wading pool", "mapid": "DFPB0079", "location": "in front of wading pool", "maintainer": "Parks", "geo_local_area": "Killarney", "in_operation": "spring to fall"}},{"type": "Feature", "geometry": {"type": "Point", "coordinates": [-123.153186687643, 49.27478748031104]}, "properties": {"maintainer": "Parks", "name": "Fountain location:\nKitsilano Beach Park - South of playground", "mapid": "DFPB0083", "location": "besides playground", "in_operation": "spring to fall", "geo_local_area": "Kitsilano"}},{"type": "Feature", "geometry": {"type": "Point", "coordinates": [-123.11252814833458, 49.22389007931097]}, "properties": {"maintainer": "Parks", "name": "Fountain location:\nLangara Golf Course - clubhouse building", "mapid": "DFPB0088", "location": "clubhouse building", "in_operation": "spring to fall", "geo_local_area": "Oakridge"}},{"type": "Feature", "geometry": {"type": "Point", "coordinates": [-123.20714961781954, 49.27507501211316]}, "properties": {"maintainer": "Parks", "name": "Fountain location:\nLocarno Beach Park", "mapid": "DFPB0089", "location": "near concessions", "in_operation": "spring to fall", "geo_local_area": "West Point Grey"}},{"type": "Feature", "geometry": {"type": "Point", "coordinates": [-123.09849604345541, 49.230075113614106]}, "properties": {"maintainer": "Parks", "name": "Fountain location:\nMacDonald Park", "mapid": "DFPB0090", "location": "near NW corner of tennis court", "in_operation": "spring to fall", "geo_local_area": "Sunset"}},{"type": "Feature", "geometry": {"type": "Point", "coordinates": [-123.16081645575363, 49.22361195604753]}, "properties": {"maintainer": "Parks", "name": "Fountain location:\nMaple Grove Park - South of baseball diamond", "mapid": "DFPB0093", "location": "S-side of baseball diamond", "in_operation": "spring to fall", "geo_local_area": "Kerrisdale"}},{"type": "Feature", "geometry": {"type": "Point", "coordinates": [-123.13894336301057, 49.20572859250458]}, "properties": {"photo_name": "Marpole Park - drinking fountain - 2005.JPG", "name": "Fountain location:\nMarpole Park", "mapid": "DFPB0095", "location": "west entrance to playground", "maintainer": "Parks", "geo_local_area": "Marpole", "in_operation": "spring to fall"}},{"type": "Feature", "geometry": {"type": "Point", "coordinates": [-123.17072538868275, 49.22073774832735]}, "properties": {"maintainer": "Parks", "name": "Fountain location:\nMcCleery Golf Course - servive yard", "mapid": "DFPB0100", "location": "servive yard", "in_operation": "spring to fall", "geo_local_area": "Kerrisdale"}},{"type": "Feature", "geometry": {"type": "Point", "coordinates": [-123.08718501007823, 49.21544341401607]}, "properties": {"mapid": "DFPB0106", "maintainer": "Parks", "name": "Fountain location:\nMoberly Park - Arts & Cultural Centre", "geo_local_area": "Sunset"}},{"type": "Feature", "geometry": {"type": "Point", "coordinates": [-123.14224916999193, 49.287535297882734]}, "properties": {"mapid": "DFPB0107", "geo_local_area": "West End", "maintainer": "Parks", "name": "Fountain location:\nMorton Park", "in_operation": "spring to fall"}},{"type": "Feature", "geometry": {"type": "Point", "coordinates": [-123.05690478396131, 49.228382094384926]}, "properties": {"photo_name": "Nanaimo Park - drinking fountain - 2005.JPG", "name": "Fountain location:\nNanaimo Park", "mapid": "DFPB0110", "location": "in front of wading pool", "maintainer": "Parks", "geo_local_area": "Victoria-Fraserview", "in_operation": "spring to fall"}},{"type": "Feature", "geometry": {"type": "Point", "coordinates": [-123.12996610354612, 49.28294420590987]}, "properties": {"photo_name": "Nelson Park - drinking fountain - 2006.JPG", "name": "Fountain location:\nNelson Park", "mapid": "DFPB0111", "location": "middle of park", "maintainer": "Parks", "geo_local_area": "West End", "in_operation": "spring to fall"}},{"type": "Feature", "geometry": {"type": "Point", "coordinates": [-123.05081271824574, 49.23827830254492]}, "properties": {"maintainer": "Parks", "name": "Fountain location:\nNorquay Park", "mapid": "DFPB0115", "location": "front of wading pool", "in_operation": "spring to fall", "geo_local_area": "Renfrew-Collingwood"}},{"type": "Feature", "geometry": {"type": "Point", "coordinates": [-123.12814026541413, 49.21698683039526]}, "properties": {"photo_name": "Oak Park - drinking fountain 3 - 2007.JPG", "name": "Fountain location:\nOak Park - East of fieldhouse", "mapid": "DFPB0117", "location": "East side of fieldhouse", "maintainer": "Parks", "geo_local_area": "Marpole", "in_operation": "spring to fall"}},{"type": "Feature", "geometry": {"type": "Point", "coordinates": [-123.12737226202022, 49.216689824099134]}, "properties": {"photo_name": "Oak Park - drinking fountain 1 - 2007.JPG", "name": "Fountain location:\nOak Park - East of spray park", "mapid": "DFPB0118", "location": "In spray park", "maintainer": "Parks", "geo_local_area": "Marpole", "in_operation": "spring to fall"}},{"type": "Feature", "geometry": {"type": "Point", "coordinates": [-123.12910727287776, 49.21671182405714]}, "properties": {"photo_name": "Oak Park - drinking fountain 2 - 2007.JPG", "name": "Fountain location:\nOak Park - North west of field hockey", "mapid": "DFPB0116", "location": "Near parking lot", "maintainer": "Parks", "geo_local_area": "Marpole", "in_operation": "spring to fall"}},{"type": "Feature", "geometry": {"type": "Point", "coordinates": [-123.0573907228131, 49.28241944355695]}, "properties": {"maintainer": "Parks", "name": "Fountain location:\nPandora Park", "mapid": "DFPB0120", "location": "N-side of wading pool", "in_operation": "spring to fall", "geo_local_area": "Grandview-Woodland"}},{"type": "Feature", "geometry": {"type": "Point", "coordinates": [-123.11019100783243, 49.27115666646443]}, "properties": {"mapid": "DFPB0121", "maintainer": "Parks", "name": "Fountain location:\nPark Site On South East False Creek - Hinge", "geo_local_area": "Mount Pleasant"}},{"type": "Feature", "geometry": {"type": "Point", "coordinates": [-123.10448994330177, 49.281769090820944]}, "properties": {"mapid": "DFPB0122", "maintainer": "Parks", "name": "Fountain location:\nPioneer Place (Pigeon Park)", "geo_local_area": "Downtown"}},{"type": "Feature", "geometry": {"type": "Point", "coordinates": [-123.10560606822328, 49.23752526603095]}, "properties": {"photo_name": "Queen Elizabeth Park - drinking fountain 1 - 2006.JPG", "name": "Fountain location:\nQueen Elizabeth Park - 37th and Ontario", "mapid": "DFPB0124", "location": "37th and Ontario", "maintainer": "Parks", "geo_local_area": "Riley Park", "in_operation": "spring to fall"}},{"type": "Feature", "geometry": {"type": "Point", "coordinates": [-123.10479228037154, 49.2426880999357]}, "properties": {"mapid": "DFPB0188", "geo_local_area": "Riley Park", "maintainer": "Parks", "name": "Fountain location:\nRiley Park", "location": "West side of the park"}},{"type": "Feature", "geometry": {"type": "Point", "coordinates": [-123.05096580744122, 49.205843628445386]}, "properties": {"maintainer": "Parks", "name": "Fountain location:\nRiverfront Park - West of tennis courts", "mapid": "DFPB0129", "location": "w-side of tennis courts", "in_operation": "spring to fall", "geo_local_area": "Killarney"}},{"type": "Feature", "geometry": {"type": "Point", "coordinates": [-123.08261997732612, 49.21705184897251]}, "properties": {"maintainer": "Parks", "name": "Fountain location:\nRoss Park", "mapid": "DFPB0131", "location": "near shelter", "in_operation": "spring to fall", "geo_local_area": "Sunset"}},{"type": "Feature", "geometry": {"type": "Point", "coordinates": [-123.03062049301315, 49.27317703975057]}, "properties": {"photo_name": "Rupert Park - drinking fountain 2 - 2007.JPG", "name": "Fountain location:\nRupert Park - South of golf entrance booth", "mapid": "DFPB0134", "location": "S-side of golf entrance booth", "maintainer": "Parks", "geo_local_area": "Hastings-Sunrise", "in_operation": "spring to fall"}},{"type": "Feature", "geometry": {"type": "Point", "coordinates": [-123.14619023821574, 49.27109595186446]}, "properties": {"maintainer": "Parks", "name": "Fountain location:\nSeaforth Peace Park", "mapid": "DFPB0137", "location": "S end plaza", "in_operation": "spring to fall", "geo_local_area": "Kitsilano"}},{"type": "Feature", "geometry": {"type": "Point", "coordinates": [-123.148332, 49.310653]}, "properties": {"maintainer": "Parks", "mapid": "DFPB0159", "location": "Brockton Clubhouse", "name": "Fountain location:\nStanley Park - Brockton Cricket Pavilion"}},{"type": "Feature", "geometry": {"type": "Point", "coordinates": [-123.148332, 49.310653]}, "properties": {"mapid": "DFPB0161", "in_operation": "spring to fall", "maintainer": "Parks", "name": "Fountain location:\nStanley Park - Dog Off-leash area", "location": "Beside Dog off-leash area"}},{"type": "Feature", "geometry": {"type": "Point", "coordinates": [-123.1424377015813, 49.313489270665016]}, "properties": {"mapid": "DFPB0141", "in_operation": "spring to fall", "maintainer": "Parks", "name": "Fountain location:\nStanley Park - Prospect Point Lookout", "location": "Prospect Point viewing"}},{"type": "Feature", "geometry": {"type": "Point", "coordinates": [-123.14818844616497, 49.31072472615588]}, "properties": {"mapid": "DFPB0156", "in_operation": "spring to fall", "maintainer": "Parks", "name": "Fountain location:\nStanley Park - Prospect Point Picnic Site", "location": "Prospect Point picnic area"}},{"type": "Feature", "geometry": {"type": "Point", "coordinates": [-123.14599767463297, 49.292326017929625]}, "properties": {"mapid": "DFPB0143", "in_operation": "year-round", "maintainer": "Parks", "name": "Fountain location:\nStanley Park - Tennis Courts", "location": "near Tennis Courts & Fish House"}},{"type": "Feature", "geometry": {"type": "Point", "coordinates": [-123.15632021825063, 49.30326262273198]}, "properties": {"mapid": "DFPB0153", "in_operation": "spring to fall", "maintainer": "Parks", "name": "Fountain location:\nStanley Park - Third Beach Seawall", "location": "Third beach seawall"}},{"type": "Feature", "geometry": {"type": "Point", "coordinates": [-123.08667384655139, 49.27493305453203]}, "properties": {"maintainer": "Parks", "name": "Fountain location:\nStrathcona Park - besides baseball diamond", "mapid": "DFPB0164", "location": "besides baseball diamond", "in_operation": "spring to fall", "geo_local_area": "Strathcona"}},{"type": "Feature", "geometry": {"type": "Point", "coordinates": [-123.13401616561772, 49.26922691690112]}, "properties": {"maintainer": "Parks", "name": "Fountain location:\nSutcliffe Park", "mapid": "DFPB0168", "location": "S-side of false creek communit", "in_operation": "spring to fall", "geo_local_area": "Fairview"}},{"type": "Feature", "geometry": {"type": "Point", "coordinates": [-123.07017586403101, 49.2297128163117]}, "properties": {"maintainer": "Parks", "name": "Fountain location:\nTecumseh Park", "mapid": "DFPB0170", "location": "middle of park", "in_operation": "spring to fall", "geo_local_area": "Victoria-Fraserview"}},{"type": "Feature", "geometry": {"type": "Point", "coordinates": [-123.16382240251893, 49.25137853323129]}, "properties": {"maintainer": "Parks", "name": "Fountain location:\nTrafalgar Park", "mapid": "DFPB0172", "location": "E-side of wading pool", "in_operation": "spring to fall", "geo_local_area": "Arbutus-Ridge"}},{"type": "Feature", "geometry": {"type": "Point", "coordinates": [-123.09310688779313, 49.27506635498275]}, "properties": {"maintainer": "Parks", "name": "Fountain location:\nTrillium Park", "mapid": "DFPB0173", "location": "on west side of building", "in_operation": "spring to fall", "geo_local_area": "Strathcona"}},{"type": "Feature", "geometry": {"type": "Point", "coordinates": [-123.13975418570803, 49.27521804024948]}, "properties": {"mapid": "DFPB0176", "geo_local_area": "Kitsilano", "maintainer": "Parks", "name": "Fountain location:\nVanier Park (Burrard Civic Marina)", "in_operation": "year-round"}},{"type": "Feature", "geometry": {"type": "Point", "coordinates": [-123.07309279284456, 49.26315381297962]}, "properties": {"mapid": "DFPB0179", "geo_local_area": "Grandview-Woodland", "maintainer": "Parks", "name": "Fountain location:\nW.C. Shelly Park", "in_operation": "spring to fall"}},{"type": "Feature", "geometry": {"type": "Point", "coordinates": [-123.20524762794798, 49.266126826024426]}, "properties": {"maintainer": "Parks", "name": "Fountain location:\nWest Point Grey Park - North of wading pool", "mapid": "DFPB0183", "location": "N-side of wading pool", "in_operation": "spring to fall", "geo_local_area": "West Point Grey"}},{"type": "Feature", "geometry": {"type": "Point", "coordinates": [-123.131579, 49.2733345]}, "properties": {"maintainer": "Engineering", "name": "Bottle Filling Station location: \nGranville St Pumping Station", "mapid": "DFENG0503", "location": "North side of sewage pumping station under Granville Bridge on bike route", "photo_name": "GranvilleStPumpingStation.jpg", "pet_friendly": "N", "geo_local_area": "Downtown", "in_operation": "Year Round"}},{"type": "Feature", "geometry": {"type": "Point", "coordinates": [-123.1527806, 49.2737142]}, "properties": {"maintainer": "Engineering", "name": "Bottle Filling Station location: \nKitsilano Pumping Station", "mapid": "DFENG0504", "location": "North side of sewage pumping station on w/s/ 1300 Arbutus", "photo_name": "KitsilanoPumpingStation.jpg", "pet_friendly": "N", "geo_local_area": "Kitsilano", "in_operation": "Year Round"}},{"type": "Feature", "geometry": {"type": "Point", "coordinates": [-123.098886, 49.2730368]}, "properties": {"maintainer": "Engineering", "name": "Bottle Filling Station location: \nThornton Park Pumping Station", "mapid": "DFENG0505", "location": "West side of sewage pumping station on w/s/ 1200 Station St", "photo_name": "ThorntonParkPumpingStation.jpg", "pet_friendly": "N", "geo_local_area": "Strathcona", "in_operation": "Year Round"}},{"type": "Feature", "geometry": {"type": "Point", "coordinates": [-123.10102, 49.245762]}, "properties": {"maintainer": "Engineering", "name": "Fountain location:\n28th & Main", "mapid": "DFENG0001", "location": "Northeast corner of 28th & Main", "photo_name": "Main 28th 1.JPG", "pet_friendly": "N", "geo_local_area": "Riley Park", "in_operation": "May-October"}},{"type": "Feature", "geometry": {"type": "Point", "coordinates": [-123.127384, 49.237587]}, "properties": {"maintainer": "Engineering", "name": "Fountain location:\n37th & Oak", "mapid": "DFENG0012", "location": "Southeast corner of 37th & Oak", "photo_name": "Oak 37th 2.JPG", "pet_friendly": "N", "geo_local_area": "South Cambie", "in_operation": "May-October"}},{"type": "Feature", "geometry": {"type": "Point", "coordinates": [-123.09728295, 49.2371952]}, "properties": {"maintainer": "Engineering", "name": "Fountain location:\n37th & Prince Edward", "mapid": "DFENG0018", "location": "Northwest corner of 37th & Prince Edward", "photo_name": "Prince Ed 37th 4.JPG", "pet_friendly": "Y", "geo_local_area": "Riley Park", "in_operation": "May-October"}},{"type": "Feature", "geometry": {"type": "Point", "coordinates": [-123.106415, 49.219505]}, "properties": {"maintainer": "Engineering", "name": "Fountain location:\n56th & Ontario", "mapid": "DFENG0004", "location": "Northwest corner of 56th & Ontario", "photo_name": "Ontario 56th 2.JPG", "pet_friendly": "Y", "geo_local_area": "Oakridge", "in_operation": "May-October"}},{"type": "Feature", "geometry": {"type": "Point", "coordinates": [-123.055044, 49.2187548]}, "properties": {"maintainer": "Engineering", "name": "Fountain location:\nAshburn & Elliot", "mapid": "DFENG0022", "location": "Northwest corner of Ashburn & Elliot", "photo_name": "Ashburn&Elliot.jpg", "pet_friendly": "N", "geo_local_area": "Victoria-Fraserview", "in_operation": "May-October"}},{"type": "Feature", "geometry": {"type": "Point", "coordinates": [-123.105026, 49.262875]}, "properties": {"maintainer": "Engineering", "name": "Fountain location:\nBroadway & Ontario", "mapid": "DFENG0015", "location": "Southwest corner of Broadway & Ontario", "photo_name": "Broadway ON 2.JPG", "pet_friendly": "N", "geo_local_area": "Mount Pleasant", "in_operation": "May-October"}},{"type": "Feature", "geometry": {"type": "Point", "coordinates": [-123.1666474, 49.26423514]}, "properties": {"maintainer": "Engineering", "name": "Fountain location:\nBroadway & Stephens", "mapid": "DFENG0032", "location": "Northwest corner of Broadway & Stephens", "photo_name": "P3140921.JPG", "pet_friendly": "N", "geo_local_area": "Kitsilano", "in_operation": "May-October"}},{"type": "Feature", "geometry": {"type": "Point", "coordinates": [-123.097231, 49.281386]}, "properties": {"maintainer": "Engineering", "name": "Fountain location:\nHastings & Gore", "mapid": "DFENG0020", "location": "Northeast corner of Hastings & Gore", "photo_name": "Hastings&Gore.jpg", "pet_friendly": "N", "geo_local_area": "Strathcona", "in_operation": "Year Round"}},{"type": "Feature", "geometry": {"type": "Point", "coordinates": [-123.12229054, 49.28306599]}, "properties": {"maintainer": "Engineering", "name": "Fountain location:\nRobson & Burrard", "mapid": "DFENG0009", "location": "Northeast corner of Robson & Burrard", "photo_name": "P2190667.JPG", "pet_friendly": "Y", "geo_local_area": "Downtown", "in_operation": "May-October"}},{"type": "Feature", "geometry": {"type": "Point", "coordinates": [-123.087389, 49.2775724]}, "properties": {"maintainer": "Engineering", "name": "Fountain location:\nUnion & Hawks", "mapid": "DFENG0030", "location": "In mini park at Union & Hawks", "photo_name": "Union&Hawks.jpg", "pet_friendly": "N", "geo_local_area": "Strathcona", "in_operation": "Year Round"}},{"type": "Feature", "geometry": {"type": "Point", "coordinates": [-123.098912, 49.261984]}, "properties": {"maintainer": "Engineering", "name": "Fountain location: 10th & Kingsway", "mapid": "DFENG0050", "location": "Northwest corner of 10th & Kingsway", "pet_friendly": "Y", "geo_local_area": "Mount Pleasant", "in_operation": "May-October"}},{"type": "Feature", "geometry": {"type": "Point", "coordinates": [-123.09634, 49.261036]}, "properties": {"maintainer": "Engineering", "name": "Fountain location: 11th & Prince Edward", "mapid": "DFENG0049", "location": "Northeast corner of 11th & Prince Edward", "pet_friendly": "Y", "geo_local_area": "Mount Pleasant", "in_operation": "May-October"}},{"type": "Feature", "geometry": {"type": "Point", "coordinates": [-123.152238, 49.262911]}, "properties": {"maintainer": "Engineering", "name": "Fountain location: 2001 W 10th Avenue", "mapid": "DFENG0045", "location": "North side of 10th Avenue", "pet_friendly": "N", "geo_local_area": "Kitsilano", "in_operation": "May-October"}},{"type": "Feature", "geometry": {"type": "Point", "coordinates": [-123.042394, 49.20577]}, "properties": {"maintainer": "Engineering", "name": "Fountain location: 8683 Kerr", "mapid": "DFENG0052", "location": "Southwest side of Kerr", "pet_friendly": "Y", "geo_local_area": "Killarney", "in_operation": "May-October"}},{"type": "Feature", "geometry": {"type": "Point", "coordinates": [-123.179475, 49.271936]}, "properties": {"maintainer": "Engineering", "name": "Fountain location: Point Grey Road & Waterloo", "mapid": "DFENG0040", "location": "1600 Waterloo St", "pet_friendly": "N", "geo_local_area": "Kitsilano", "in_operation": "Year Round"}},{"type": "Feature", "geometry": {"type": "Point", "coordinates": [-123.098262, 49.260244]}, "properties": {"maintainer": "Engineering", "name": "Fountain location: Sophia & E 12th", "mapid": "DFENG0053", "location": "Northeast corner of Sophia & 12th", "pet_friendly": "Y", "geo_local_area": "Mount Pleasant", "in_operation": "May-October"}},{"type": "Feature", "geometry": {"type": "Point", "coordinates": [-123.114629, 49.213173]}, "properties": {"maintainer": "Engineering", "name": "Fountain location: W 63rd Avenue & Yukon Street", "mapid": "DFENG0042", "location": "Southeast corner of W 63rd Avenue & Yukon Street", "pet_friendly": "N", "geo_local_area": "Marpole", "in_operation": "Year Round"}}]}